% program   : RTKPOST ver.2.4.3 b34
% inp file  : C:\Users\arovere\Desktop\Camarones\Rover\Data\BadElf\RINEX\Car_transect_ant_height1p72m.obs
% inp file  : C:\Users\arovere\Desktop\Camarones\Base_station\RINEX\raw_*.obs
% inp file  : C:\Users\arovere\Desktop\Camarones\Base_station\RINEX\raw_*.nav
% obs start : 2019/11/12 13:30:29.5 UTC (week2079 221447.5s)
% obs end   : 2019/11/12 13:36:16.0 UTC (week2079 221794.0s)
% pos mode  : Kinematic
% freqs     : L1
% solution  : Combined
% elev mask : 15.0 deg
% dynamics  : off
% tidecorr  : off
% ionos opt : Broadcast
% tropo opt : Saastamoinen
% ephemeris : Broadcast
% navi sys  : GPS GLONASS Galileo QZSS BDS
% amb res   : Fix and Hold
% amb glo   : ON
% val thres : 3.0
% antenna1  :                       ( 0.0000  0.0000  0.0000)
% antenna2  :                       ( 0.0000  0.0000  0.0000)
% ref pos   :-44.800583989  -65.706097264    25.7800
%
% (lat/lon/height=WGS84/ellipsoidal,Q=1:fix,2:float,3:sbas,4:dgps,5:single,6:ppp,ns=# of satellites)
%  UTC                   latitude(deg) longitude(deg)  height(m)   Q  ns   sdn(m)   sde(m)   sdu(m)  sdne(m)  sdeu(m)  sdun(m) age(s)  ratio
2019/11/12 13:30:29.500  -44.842432223  -65.737729193    39.9647   1   6   0.3692   0.3184   2.2143   0.3427  -0.8393  -0.9032   0.10   56.5
2019/11/12 13:30:31.000  -44.842399561  -65.737703345    18.8939   2   7   0.1940   0.1664   1.0462   0.1480  -0.3897  -0.4173  -0.00    1.9
2019/11/12 13:30:31.500  -44.842358671  -65.737676661    23.1372   1   7   0.2761   0.2384   1.6640   0.2564  -0.6294  -0.6765   0.10   16.0
2019/11/12 13:30:32.000  -44.842411410  -65.737716436    26.2787   2   7   0.1045   0.0879   0.3535  -0.0342  -0.1138  -0.1165  -0.00    2.4
2019/11/12 13:30:32.500  -44.842411248  -65.737717027    26.3777   2   7   0.1031   0.0875   0.3528  -0.0361  -0.1129  -0.1148   0.10    1.3
2019/11/12 13:30:33.000  -44.842410951  -65.737716723    26.4882   2   7   0.1034   0.0876   0.3529  -0.0358  -0.1129  -0.1149  -0.00    1.0
2019/11/12 13:30:33.500  -44.842368646  -65.737684337    22.4689   1   7   0.1247   0.1076   0.7509   0.1156  -0.2836  -0.3047   0.10   12.8
2019/11/12 13:30:34.000  -44.842369088  -65.737682996    24.2454   1   6   0.1196   0.1023   0.7122   0.1103  -0.2692  -0.2895  -0.00    3.7
2019/11/12 13:30:34.500  -44.842412541  -65.737717466    27.0439   2   6   0.1031   0.0877   0.3549  -0.0357  -0.1137  -0.1156   0.10    2.0
2019/11/12 13:30:35.000  -44.842376995  -65.737686978    25.9548   1   7   0.1047   0.0902   0.6298   0.0969  -0.2375  -0.2551  -0.00   14.1
2019/11/12 13:30:35.500  -44.842411891  -65.737717148    26.7440   2   7   0.1036   0.0876   0.3527  -0.0354  -0.1125  -0.1143   0.10    1.3
2019/11/12 13:30:36.000  -44.842412945  -65.737717281    27.1124   2   7   0.1036   0.0877   0.3529  -0.0353  -0.1124  -0.1142  -0.00    2.2
2019/11/12 13:30:36.500  -44.842397932  -65.737705221    29.5852   2   7   0.0569   0.0480   0.3323   0.0519  -0.1253  -0.1348   0.10    3.4
2019/11/12 13:30:37.000  -44.842421266  -65.737730209    30.4493   1   7   0.0728   0.0625   0.4369   0.0668  -0.1640  -0.1747  -0.00    3.8
2019/11/12 13:30:37.500  -44.842404461  -65.737712532    28.9450   2   7   0.0555   0.0472   0.3291   0.0508  -0.1237  -0.1325   0.10    4.3
2019/11/12 13:30:38.000  -44.842393961  -65.737699346    28.4335   1   7   0.0806   0.0680   0.4718   0.0735  -0.1779  -0.1913  -0.00   18.5
2019/11/12 13:30:38.500  -44.842430959  -65.737730806    27.4116   2   7   0.1022   0.0870   0.3520  -0.0378  -0.1095  -0.1096   0.10    2.6
2019/11/12 13:30:39.000  -44.842437991  -65.737732617    27.0783   2   7   0.1023   0.0873   0.3502  -0.0373  -0.1104  -0.1112  -0.00    1.3
2019/11/12 13:30:39.500  -44.842416271  -65.737702256    30.1228   1   7   0.0746   0.0627   0.4369   0.0678  -0.1640  -0.1763   0.10   14.0
2019/11/12 13:30:40.000  -44.842425223  -65.737700819    30.4129   1   7   0.0707   0.0603   0.4226   0.0649  -0.1585  -0.1699  -0.00   15.8
2019/11/12 13:30:40.500  -44.842435151  -65.737696250    30.9167   1   7   0.0704   0.0589   0.4103   0.0638  -0.1542  -0.1658   0.10    4.1
2019/11/12 13:30:41.000  -44.842471750  -65.737718338    27.5828   2   7   0.1023   0.0873   0.3549  -0.0374  -0.1105  -0.1112  -0.00    1.2
2019/11/12 13:30:41.500  -44.842478297  -65.737710514    28.1944   2   7   0.1022   0.0876   0.3577  -0.0371  -0.1118  -0.1117   0.10    1.0
2019/11/12 13:30:42.000  -44.842482891  -65.737701424    28.0337   2   7   0.1019   0.0876   0.3571  -0.0375  -0.1122  -0.1124  -0.00    2.2
2019/11/12 13:30:42.500  -44.842465369  -65.737672383    31.3915   1   7   0.0232   0.0121   0.0386   0.0155  -0.0144  -0.0219   0.10    3.4
2019/11/12 13:30:43.000  -44.842486484  -65.737684707    28.4217   2   7   0.1021   0.0878   0.3578  -0.0372  -0.1119  -0.1118  -0.00    1.1
2019/11/12 13:30:43.500  -44.842487113  -65.737677002    28.3383   2   7   0.1021   0.0879   0.3579  -0.0372  -0.1120  -0.1118   0.10    1.1
2019/11/12 13:30:44.000  -44.842472916  -65.737659653    31.5314   1   7   0.0580   0.0497   0.3551   0.0529  -0.1304  -0.1372  -0.00    3.8
2019/11/12 13:30:46.500  -44.842472905  -65.737672633    31.0391   1   7   0.0566   0.0485   0.3484   0.0516  -0.1275  -0.1339   0.10   56.7
2019/11/12 13:30:48.500  -44.842493531  -65.737736196    40.5463   2   7   0.3053   0.2456   0.2054  -0.2621   0.2059  -0.2366   0.10    1.0
2019/11/12 13:30:49.000  -44.842492867  -65.737738997    40.4679   2   7   0.3052   0.2456   0.2056  -0.2621   0.2061  -0.2367  -0.00    1.2
2019/11/12 13:30:49.500  -44.842482631  -65.737751825    39.8639   2   7   0.3051   0.2456   0.2057  -0.2620   0.2062  -0.2368   0.10    1.0
2019/11/12 13:30:50.000  -44.842479258  -65.737756944    39.5470   2   7   0.3051   0.2457   0.2059  -0.2620   0.2063  -0.2369  -0.00    1.1
2019/11/12 13:30:50.500  -44.842504245  -65.737727898    41.2525   2   7   0.2522   0.2026   0.1766  -0.2117   0.1669  -0.1948   0.10    1.0
2019/11/12 13:30:51.000  -44.842503975  -65.737725366    41.2809   2   7   0.2522   0.2029   0.1770  -0.2118   0.1673  -0.1952  -0.00    1.0
2019/11/12 13:30:51.500  -44.842489719  -65.737732714    40.3705   1   7   0.4207   0.3410   0.2688  -0.3785   0.2980  -0.3298  -0.10    4.6
2019/11/12 13:30:52.000  -44.842473208  -65.737747834    40.7610   2   7   0.1886   0.1530   0.1258  -0.1696   0.1336  -0.1469  -0.00    4.8
2019/11/12 13:30:52.500  -44.842477421  -65.737725260    39.9443   1   7   0.2435   0.1977   0.1647  -0.2189   0.1726  -0.1894  -0.10    9.2
2019/11/12 13:30:53.000  -44.842475602  -65.737712206    40.0595   1   7   0.2978   0.2417   0.1964  -0.2679   0.2114  -0.2329  -0.00   15.7
2019/11/12 13:30:53.500  -44.842470451  -65.737699111    40.1845   1   7   0.4202   0.3411   0.2700  -0.3784   0.2988  -0.3304  -0.10   15.5
2019/11/12 13:30:54.000  -44.842476783  -65.737669269    41.2074   1   7   0.1186   0.0964   0.0819  -0.1064   0.0851  -0.0928  -0.00   33.1
2019/11/12 13:30:54.500  -44.842470859  -65.737656225    41.6711   2   7   0.1141   0.0927   0.0771  -0.1025   0.0816  -0.0895   0.10  191.7
2019/11/12 13:30:55.000  -44.842458350  -65.737636862    41.4561   1   7   0.1288   0.1048   0.0882  -0.1157   0.0924  -0.1010  -0.00   48.3
2019/11/12 13:30:55.500  -44.842447041  -65.737620100    41.5633   1   7   0.1350   0.1098   0.0921  -0.1213   0.0969  -0.1060  -0.10    3.6
2019/11/12 13:30:56.000  -44.842446148  -65.737612943    44.2616   1   7   0.1907   0.1550   0.1258  -0.1716   0.1362  -0.1498  -0.00    6.0
2019/11/12 13:30:56.500  -44.842427125  -65.737588330    42.6863   2   7   0.1140   0.0927   0.0764  -0.1025   0.0816  -0.0896   0.10    9.1
2019/11/12 13:30:57.000  -44.842415069  -65.737570389    42.7833   2   7   0.1140   0.0928   0.0764  -0.1025   0.0816  -0.0897  -0.00    3.5
2019/11/12 13:30:57.500  -44.842390858  -65.737546609    41.5882   1   7   0.1738   0.1415   0.1164  -0.1564   0.1248  -0.1371  -0.10    3.4
2019/11/12 13:30:58.000  -44.842376916  -65.737528543    41.7340   1   7   0.1902   0.1549   0.1269  -0.1712   0.1365  -0.1503  -0.00    5.3
2019/11/12 13:30:58.500  -44.842361519  -65.737511448    41.8311   1   7   0.2124   0.1731   0.1410  -0.1913   0.1525  -0.1680  -0.10    3.5
2019/11/12 13:30:59.000  -44.842365187  -65.737504389    43.1671   1   7   0.1289   0.1050   0.0885  -0.1157   0.0923  -0.1012  -0.00   16.2
2019/11/12 13:30:59.500  -44.842347582  -65.737487099    42.6365   1   7   0.1235   0.1006   0.0852  -0.1107   0.0884  -0.0969   0.10    3.4
2019/11/12 13:31:00.000  -44.842330923  -65.737470459    42.7197   1   7   0.1186   0.0966   0.0822  -0.1065   0.0851  -0.0929  -0.00    5.9
2019/11/12 13:31:00.500  -44.842321323  -65.737426297    43.9820   2   7   0.1358   0.0391   0.0914  -0.0481   0.0406  -0.1033   0.10    1.0
2019/11/12 13:31:01.000  -44.842305281  -65.737408786    44.1540   2   7   0.1360   0.0390   0.0915  -0.0482   0.0407  -0.1035  -0.00    1.2
2019/11/12 13:31:05.500  -44.842149482  -65.737274027    44.7578   2   7   0.1358   0.0390   0.0914  -0.0481   0.0407  -0.1033   0.10    1.6
2019/11/12 13:31:06.000  -44.842126630  -65.737259397    44.7931   2   7   0.1357   0.0390   0.0914  -0.0481   0.0407  -0.1033  -0.00    1.4
2019/11/12 13:31:06.500  -44.842101774  -65.737245210    44.8570   2   7   0.1357   0.0388   0.0897  -0.0481   0.0395  -0.1032   0.10    1.4
2019/11/12 13:31:07.000  -44.842075371  -65.737231660    44.8279   2   7   0.1358   0.0388   0.0898  -0.0481   0.0396  -0.1033  -0.00    1.2
2019/11/12 13:31:07.500  -44.842047723  -65.737218257    44.8745   2   7   0.1358   0.0388   0.0897  -0.0481   0.0398  -0.1033   0.10    1.1
2019/11/12 13:31:08.000  -44.842017753  -65.737204775    44.7664   2   7   0.1357   0.0387   0.0899  -0.0481   0.0398  -0.1031  -0.00    2.5
2019/11/12 13:31:08.500  -44.841988277  -65.737191472    44.8116   2   7   0.1358   0.0388   0.0900  -0.0481   0.0400  -0.1033   0.10    1.6
2019/11/12 13:31:09.000  -44.841958936  -65.737177969    44.8871   2   7   0.1358   0.0389   0.0904  -0.0481   0.0402  -0.1032  -0.00    1.0
2019/11/12 13:31:09.500  -44.841926840  -65.737164904    44.7881   2   7   0.1358   0.0390   0.0917  -0.0481   0.0408  -0.1032   0.10    1.1
2019/11/12 13:31:10.000  -44.841895034  -65.737151705    44.7986   2   7   0.1359   0.0392   0.0920  -0.0481   0.0410  -0.1032  -0.00    1.2
2019/11/12 13:31:10.500  -44.841860697  -65.737139041    44.6706   2   7   0.1362   0.0393   0.0932  -0.0481   0.0416  -0.1035   0.10    1.1
2019/11/12 13:31:11.000  -44.841817537  -65.737127293    44.0097   2   7   0.0496   0.0394   0.0535  -0.0424   0.0356  -0.0395  -0.00    1.5
2019/11/12 13:31:11.500  -44.841783488  -65.737113838    43.9655   2   7   0.0496   0.0395   0.0539  -0.0423   0.0357  -0.0392   0.10    2.0
2019/11/12 13:31:12.000  -44.841748904  -65.737100760    43.8960   2   7   0.0498   0.0396   0.0550  -0.0421   0.0362  -0.0386  -0.00    1.1
2019/11/12 13:31:12.500  -44.841713536  -65.737087461    43.8098   2   7   0.0492   0.0395   0.0547  -0.0423   0.0363  -0.0381   0.10    1.7
2019/11/12 13:31:13.000  -44.841678303  -65.737074075    43.7768   2   7   0.0493   0.0396   0.0547  -0.0423   0.0363  -0.0381  -0.00    1.0
2019/11/12 13:31:13.500  -44.841642592  -65.737060313    43.7289   2   7   0.0492   0.0394   0.0533  -0.0424   0.0358  -0.0386   0.10    1.1
2019/11/12 13:31:14.000  -44.841606465  -65.737046627    43.6717   2   7   0.0493   0.0396   0.0547  -0.0422   0.0362  -0.0382  -0.00    1.0
2019/11/12 13:31:14.500  -44.841569783  -65.737032505    43.6320   2   7   0.0494   0.0396   0.0548  -0.0422   0.0362  -0.0382   0.10    1.0
2019/11/12 13:31:15.000  -44.841533898  -65.737017472    43.5866   2   7   0.0495   0.0396   0.0548  -0.0421   0.0361  -0.0383  -0.00    1.0
2019/11/12 13:31:15.500  -44.841498091  -65.737001392    43.5665   2   7   0.0496   0.0397   0.0549  -0.0420   0.0360  -0.0385   0.10    1.1
2019/11/12 13:31:16.000  -44.841462970  -65.736983834    43.6101   2   7   0.0500   0.0397   0.0551  -0.0419   0.0359  -0.0389  -0.00    1.1
2019/11/12 13:31:16.500  -44.841428439  -65.736965313    43.5698   2   7   0.0498   0.0397   0.0550  -0.0419   0.0359  -0.0387   0.10    1.2
2019/11/12 13:31:17.000  -44.841394192  -65.736945565    43.4970   2   7   0.0502   0.0398   0.0553  -0.0417   0.0357  -0.0391  -0.00    1.0
2019/11/12 13:31:17.500  -44.841360772  -65.736924131    43.4189   2   7   0.0492   0.0397   0.0547  -0.0422   0.0361  -0.0380   0.10    1.1
2019/11/12 13:31:18.000  -44.841340827  -65.736905672    42.7927   1   7   0.0103   0.0075   0.0307   0.0063   0.0097   0.0103  -0.00    4.2
2019/11/12 13:31:18.500  -44.841295621  -65.736877735    43.2124   2   7   0.0490   0.0396   0.0545  -0.0422   0.0362  -0.0378   0.10    1.3
2019/11/12 13:31:19.000  -44.841263961  -65.736852011    43.0905   2   7   0.0491   0.0397   0.0546  -0.0422   0.0361  -0.0379  -0.00    1.6
2019/11/12 13:31:19.500  -44.841232715  -65.736824797    42.9260   2   7   0.0492   0.0397   0.0547  -0.0421   0.0360  -0.0380   0.10    1.1
2019/11/12 13:31:20.000  -44.841201955  -65.736795672    42.7467   2   7   0.0495   0.0398   0.0550  -0.0419   0.0358  -0.0385  -0.00    1.0
2019/11/12 13:31:20.500  -44.841171142  -65.736765623    42.5694   2   7   0.0490   0.0397   0.0543  -0.0422   0.0362  -0.0376   0.10    1.0
2019/11/12 13:31:21.000  -44.841140580  -65.736734274    42.3587   2   7   0.0490   0.0397   0.0543  -0.0422   0.0362  -0.0376  -0.00    1.2
2019/11/12 13:31:21.500  -44.841110200  -65.736701816    42.1686   2   7   0.0490   0.0397   0.0543  -0.0422   0.0361  -0.0377   0.10    1.0
2019/11/12 13:31:22.000  -44.841079629  -65.736668680    41.9650   2   7   0.0491   0.0397   0.0544  -0.0421   0.0361  -0.0377  -0.00    1.0
2019/11/12 13:31:22.500  -44.841049257  -65.736634795    41.7866   2   7   0.0491   0.0398   0.0544  -0.0421   0.0360  -0.0378   0.10    1.2
2019/11/12 13:31:23.000  -44.841018904  -65.736600058    41.5877   2   7   0.0492   0.0398   0.0545  -0.0420   0.0360  -0.0379  -0.00    1.4
2019/11/12 13:31:23.500  -44.840988718  -65.736565066    41.4106   2   7   0.0494   0.0399   0.0546  -0.0419   0.0359  -0.0381   0.10    1.2
2019/11/12 13:31:24.000  -44.840959081  -65.736530138    41.2534   2   7   0.0498   0.0400   0.0548  -0.0417   0.0357  -0.0385  -0.00    1.3
2019/11/12 13:31:24.500  -44.840929410  -65.736494056    41.0540   2   7   0.0488   0.0398   0.0541  -0.0422   0.0361  -0.0373   0.10    1.1
2019/11/12 13:31:25.000  -44.840899140  -65.736458245    40.9006   2   7   0.0490   0.0399   0.0545  -0.0420   0.0359  -0.0377  -0.00    1.2
2019/11/12 13:31:25.500  -44.840868242  -65.736422507    40.7847   2   7   0.0488   0.0398   0.0541  -0.0422   0.0361  -0.0373   0.10    1.4
2019/11/12 13:31:26.000  -44.840836889  -65.736386917    40.6986   2   7   0.0490   0.0399   0.0545  -0.0420   0.0359  -0.0377  -0.00    1.6
2019/11/12 13:31:26.500  -44.840804455  -65.736351101    40.6089   2   7   0.0488   0.0398   0.0541  -0.0422   0.0361  -0.0373   0.10    1.4
2019/11/12 13:31:27.000  -44.840771851  -65.736314354    40.5023   2   7   0.0490   0.0399   0.0544  -0.0420   0.0359  -0.0377  -0.00    1.7
2019/11/12 13:31:27.500  -44.840738964  -65.736275966    40.3726   2   7   0.0487   0.0398   0.0539  -0.0422   0.0362  -0.0371   0.10    2.6
2019/11/12 13:31:28.000  -44.840705866  -65.736236978    40.2271   2   7   0.0487   0.0398   0.0540  -0.0422   0.0362  -0.0372  -0.00    1.7
2019/11/12 13:31:28.500  -44.840671819  -65.736197555    40.0750   2   7   0.0488   0.0399   0.0541  -0.0421   0.0361  -0.0373   0.10    1.2
2019/11/12 13:31:29.000  -44.840637387  -65.736158057    39.9265   2   7   0.0491   0.0400   0.0544  -0.0419   0.0358  -0.0377  -0.00    1.3
2019/11/12 13:31:29.500  -44.840602352  -65.736117885    39.7891   2   7   0.0489   0.0399   0.0541  -0.0421   0.0361  -0.0373   0.10    1.2
2019/11/12 13:31:30.000  -44.840567372  -65.736076334    39.6274   2   7   0.0491   0.0401   0.0544  -0.0419   0.0358  -0.0377  -0.00    1.2
2019/11/12 13:31:30.500  -44.840532000  -65.736034446    39.5138   2   7   0.0491   0.0401   0.0544  -0.0419   0.0358  -0.0377   0.10    1.2
2019/11/12 13:31:31.000  -44.840495930  -65.735992294    39.3877   2   7   0.0492   0.0401   0.0544  -0.0419   0.0358  -0.0377  -0.00    1.1
2019/11/12 13:31:31.500  -44.840459594  -65.735949560    39.2191   2   7   0.0484   0.0399   0.0532  -0.0423   0.0365  -0.0364   0.10    1.0
2019/11/12 13:31:32.000  -44.840422749  -65.735906600    39.0595   2   7   0.0485   0.0399   0.0532  -0.0423   0.0365  -0.0364  -0.00    1.1
2019/11/12 13:31:32.500  -44.840385631  -65.735863249    38.9629   2   7   0.0488   0.0400   0.0534  -0.0421   0.0364  -0.0367   0.10    1.2
2019/11/12 13:31:33.000  -44.840348001  -65.735819819    38.8474   2   7   0.0482   0.0398   0.0529  -0.0425   0.0368  -0.0359  -0.00    1.0
2019/11/12 13:31:33.500  -44.840310473  -65.735775903    38.7557   2   7   0.0482   0.0398   0.0529  -0.0425   0.0368  -0.0359   0.10    1.2
2019/11/12 13:31:34.000  -44.840272924  -65.735731753    38.7628   2   7   0.0482   0.0398   0.0530  -0.0425   0.0368  -0.0359  -0.00    1.0
2019/11/12 13:31:34.500  -44.840235523  -65.735687864    38.6981   2   7   0.0482   0.0398   0.0531  -0.0425   0.0368  -0.0359   0.10    1.1
2019/11/12 13:31:35.001  -44.840197926  -65.735644216    38.6699   2   7   0.0482   0.0398   0.0532  -0.0425   0.0368  -0.0359  -0.00    1.0
2019/11/12 13:31:35.500  -44.840160570  -65.735600780    38.6727   2   7   0.0482   0.0398   0.0533  -0.0425   0.0368  -0.0359   0.10    1.0
2019/11/12 13:31:36.000  -44.840122846  -65.735557321    38.6446   2   7   0.0482   0.0399   0.0534  -0.0425   0.0368  -0.0359  -0.00    1.1
2019/11/12 13:31:36.500  -44.840085100  -65.735514782    38.5972   2   7   0.0482   0.0399   0.0535  -0.0424   0.0368  -0.0359   0.10    1.1
2019/11/12 13:31:37.000  -44.840047263  -65.735472644    38.6336   2   7   0.0483   0.0399   0.0536  -0.0424   0.0368  -0.0360  -0.00    1.1
2019/11/12 13:31:37.500  -44.840009305  -65.735430555    38.6066   2   7   0.0484   0.0399   0.0538  -0.0424   0.0367  -0.0361   0.10    1.2
2019/11/12 13:31:38.000  -44.839971755  -65.735388505    38.6123   2   7   0.0486   0.0400   0.0543  -0.0422   0.0365  -0.0365  -0.00    1.0
2019/11/12 13:31:38.500  -44.839933849  -65.735346679    38.6136   2   7   0.0482   0.0399   0.0539  -0.0425   0.0369  -0.0358   0.10    1.2
2019/11/12 13:31:39.000  -44.839895875  -65.735304960    38.5331   2   7   0.0482   0.0399   0.0540  -0.0425   0.0368  -0.0358  -0.00    1.3
2019/11/12 13:31:39.500  -44.839858218  -65.735262615    38.4845   2   7   0.0483   0.0399   0.0543  -0.0424   0.0368  -0.0359   0.10    1.3
2019/11/12 13:31:40.000  -44.839820691  -65.735219690    38.4230   2   7   0.0484   0.0400   0.0545  -0.0424   0.0368  -0.0360  -0.00    1.2
2019/11/12 13:31:40.500  -44.839783197  -65.735175908    38.2701   2   7   0.0486   0.0401   0.0551  -0.0422   0.0365  -0.0363   0.10    1.1
2019/11/12 13:31:41.000  -44.839745662  -65.735130773    38.0600   2   7   0.0486   0.0401   0.0553  -0.0422   0.0365  -0.0362  -0.00    1.1
2019/11/12 13:31:41.500  -44.839706854  -65.735084830    37.8816   1   7   0.0095   0.0077   0.0309   0.0061   0.0099   0.0109  -0.10    4.6
2019/11/12 13:31:42.000  -44.839671419  -65.735034386    37.6075   2   7   0.0483   0.0400   0.0555  -0.0424   0.0369  -0.0356  -0.00    1.1
2019/11/12 13:31:42.500  -44.839634757  -65.734983036    37.2356   2   7   0.0484   0.0400   0.0561  -0.0424   0.0369  -0.0356   0.10    1.1
2019/11/12 13:31:43.000  -44.839598411  -65.734929647    36.9069   2   7   0.0486   0.0401   0.0569  -0.0422   0.0366  -0.0358  -0.00    1.2
2019/11/12 13:31:43.500  -44.839562078  -65.734874489    36.5752   2   7   0.0484   0.0400   0.0573  -0.0424   0.0369  -0.0352   0.10    1.2
2019/11/12 13:31:44.000  -44.839525738  -65.734817963    36.2698   2   7   0.0487   0.0401   0.0586  -0.0422   0.0367  -0.0354  -0.00    1.2
2019/11/12 13:31:44.500  -44.839490086  -65.734759657    36.0092   2   7   0.0485   0.0401   0.0598  -0.0424   0.0370  -0.0346   0.10    1.1
2019/11/12 13:31:45.000  -44.839454397  -65.734700300    35.7180   2   7   0.0488   0.0402   0.0623  -0.0422   0.0369  -0.0343  -0.00    1.1
2019/11/12 13:31:45.500  -44.839418397  -65.734639958    35.6057   1   7   0.0110   0.0085   0.0318   0.0076   0.0084   0.0087  -0.10    3.6
2019/11/12 13:31:46.000  -44.839385934  -65.734576777    35.1916   2   7   0.0494   0.0402   0.0774  -0.0422   0.0375  -0.0287  -0.00    1.1
2019/11/12 13:31:46.500  -44.839354974  -65.734510007    35.4182   2   7   0.2373   0.2008   0.1802  -0.2179   0.1852  -0.1999   0.10    1.2
2019/11/12 13:31:47.000  -44.839319642  -65.734448605    35.1203   2   7   0.2373   0.2008   0.1845  -0.2178   0.1854  -0.1992  -0.00    1.0
2019/11/12 13:31:47.500  -44.839287669  -65.734382563    35.2233   2   7   0.1933   0.1637   0.1510  -0.1773   0.1512  -0.1625   0.10    1.1
2019/11/12 13:31:48.000  -44.839258673  -65.734313755    35.3457   2   6   0.1967   0.1666   0.1585  -0.1804   0.1541  -0.1648  -0.00    1.0
2019/11/12 13:31:48.500  -44.839222777  -65.734253068    35.1380   2   6   0.1966   0.1666   0.1589  -0.1804   0.1544  -0.1649   0.10    1.0
2019/11/12 13:31:49.000  -44.839191815  -65.734187228    35.1401   2   6   0.1966   0.1667   0.1592  -0.1804   0.1546  -0.1651  -0.00    1.0
2019/11/12 13:31:49.500  -44.839148439  -65.734136358    34.1175   2   6   0.2579   0.2190   0.1962  -0.2373   0.2028  -0.2186   0.10    1.0
2019/11/12 13:31:50.000  -44.839124943  -65.734062728    34.5552   2   6   0.2579   0.2190   0.2006  -0.2372   0.2031  -0.2183  -0.00    1.1
2019/11/12 13:31:50.500  -44.839112091  -65.733977725    35.8281   2   6   0.2002   0.1699   0.1617  -0.1838   0.1576  -0.1683   0.10    1.0
2019/11/12 13:31:51.000  -44.839084191  -65.733911289    35.9647   2   6   0.1999   0.1699   0.1576  -0.1838   0.1580  -0.1696  -0.00    1.0
2019/11/12 13:31:51.500  -44.839054439  -65.733848705    35.6898   2   6   0.1998   0.1700   0.1633  -0.1838   0.1586  -0.1693   0.10    1.1
2019/11/12 13:31:52.000  -44.839029313  -65.733780404    35.7398   2   6   0.2003   0.1704   0.1632  -0.1841   0.1587  -0.1694  -0.00    1.0
2019/11/12 13:31:52.500  -44.838999131  -65.733717409    35.4650   2   6   0.2567   0.2184   0.2007  -0.2363   0.2028  -0.2178   0.10    1.0
2019/11/12 13:31:53.000  -44.838966804  -65.733657044    34.7741   2   6   0.2566   0.2184   0.2011  -0.2363   0.2031  -0.2180  -0.00    1.0
2019/11/12 13:31:53.500  -44.838939946  -65.733589410    34.5337   2   6   0.3131   0.2667   0.2405  -0.2886   0.2479  -0.2669   0.10    1.0
2019/11/12 13:31:54.500  -44.838903797  -65.733430129    35.5438   2   7   0.2045   0.1741   0.1655  -0.1881   0.1618  -0.1727   0.10    1.0
2019/11/12 13:31:55.000  -44.838873675  -65.733363506    34.9725   2   7   0.2045   0.1741   0.1657  -0.1881   0.1619  -0.1728  -0.00    1.0
2019/11/12 13:31:55.500  -44.838848272  -65.733290196    34.7518   2   7   0.2044   0.1742   0.1659  -0.1881   0.1620  -0.1729   0.10    1.0
2019/11/12 13:31:56.000  -44.838784367  -65.733262204    31.4470   2   7   0.2130   0.1815   0.1718  -0.1961   0.1689  -0.1805  -0.00    1.0
2019/11/12 13:31:56.500  -44.838752658  -65.733194187    30.9559   2   6   0.2173   0.1856   0.1767  -0.2003   0.1737  -0.1855   0.10    1.0
2019/11/12 13:31:57.000  -44.838720358  -65.733126450    30.2536   2   6   0.2178   0.1860   0.1764  -0.2007   0.1737  -0.1855  -0.00    1.0
2019/11/12 13:31:57.500  -44.838695898  -65.733048608    30.3192   2   7   0.2349   0.2006   0.1871  -0.2166   0.1867  -0.1998   0.10    1.0
2019/11/12 13:31:58.000  -44.838670548  -65.732971888    30.1306   2   7   0.2349   0.2006   0.1875  -0.2166   0.1870  -0.2001  -0.00    1.0
2019/11/12 13:31:58.500  -44.838651554  -65.732886366    30.5953   2   7   0.2871   0.2454   0.2242  -0.2650   0.2288  -0.2456   0.10    1.0
2019/11/12 13:31:59.000  -44.838618571  -65.732817442    29.9205   2   7   0.2870   0.2454   0.2244  -0.2650   0.2289  -0.2457  -0.00    1.0
2019/11/12 13:31:59.500  -44.838600784  -65.732728786    30.7525   1   7   0.0111   0.0122   0.0491  -0.0009   0.0209  -0.0086  -0.10   64.8
2019/11/12 13:32:00.000  -44.838572314  -65.732653663    30.3999   1   7   0.0123   0.0135   0.0537  -0.0009   0.0230  -0.0126  -0.00  247.2
2019/11/12 13:32:00.500  -44.838543274  -65.732578566    30.0262   1   7   0.0113   0.0147   0.0594  -0.0064   0.0272  -0.0138  -0.10    6.6
2019/11/12 13:32:01.000  -44.838513830  -65.732503239    29.7096   1   7   0.0464   0.0384   0.0749  -0.0399   0.0373  -0.0248  -0.00    4.9
2019/11/12 13:32:01.500  -44.838483950  -65.732427452    29.2971   1   7   0.0466   0.0386   0.0754  -0.0401   0.0374  -0.0254  -0.10    7.0
2019/11/12 13:32:02.000  -44.838453227  -65.732351569    28.8807   1   7   0.0470   0.0389   0.0766  -0.0402   0.0371  -0.0266  -0.00    7.6
2019/11/12 13:32:02.500  -44.838426761  -65.732281306    28.1496   2   7   0.0432   0.0373   0.0483  -0.0391   0.0365  -0.0365   0.10    3.1
2019/11/12 13:32:03.000  -44.838390883  -65.732199152    28.0909   1   7   0.0457   0.0395   0.0543  -0.0405   0.0391  -0.0385  -0.00    5.9
2019/11/12 13:32:03.500  -44.838359323  -65.732123378    27.7180   1   7   0.0457   0.0397   0.0554  -0.0410   0.0400  -0.0386  -0.10    5.3
2019/11/12 13:32:04.000  -44.838327510  -65.732047870    27.3942   1   7   0.0462   0.0402   0.0576  -0.0411   0.0405  -0.0395  -0.00    8.8
2019/11/12 13:32:04.500  -44.838295325  -65.731973362    27.1138   1   7   0.0465   0.0406   0.0603  -0.0415   0.0416  -0.0402  -0.10   28.4
2019/11/12 13:32:05.000  -44.838263117  -65.731899496    26.8992   1   7   0.0469   0.0412   0.0644  -0.0420   0.0432  -0.0412  -0.00    8.2
2019/11/12 13:32:05.500  -44.838236385  -65.731833459    25.8065   2   7   0.0641   0.0482   0.1625  -0.0181   0.0404   0.0366   0.10    2.4
2019/11/12 13:32:06.000  -44.838203634  -65.731762353    25.6274   2   7   0.0647   0.0493   0.1640  -0.0203   0.0432   0.0338  -0.00    1.5
2019/11/12 13:32:06.500  -44.838164899  -65.731686148    25.7037   1   7   0.0150   0.0085   0.0644   0.0080   0.0105   0.0255  -0.10    3.0
2019/11/12 13:32:07.000  -44.838132039  -65.731618683    25.5423   1   7   0.0109   0.0077   0.0432   0.0062   0.0105   0.0170  -0.00   10.5
2019/11/12 13:32:07.500  -44.838099942  -65.731552565    25.3609   1   7   0.0116   0.0078   0.0465   0.0065   0.0106   0.0184  -0.10   12.0
2019/11/12 13:32:08.000  -44.838069096  -65.731487324    25.2739   1   7   0.0126   0.0080   0.0523   0.0069   0.0107   0.0207  -0.00    3.7
2019/11/12 13:32:08.500  -44.838046127  -65.731430765    24.9240   2   7   0.0631   0.0467   0.1606  -0.0123   0.0362   0.0414   0.10    1.2
2019/11/12 13:32:09.000  -44.838016728  -65.731368049    24.8210   2   7   0.0644   0.0475   0.1622  -0.0060   0.0330   0.0373  -0.00    1.4
2019/11/12 13:32:09.500  -44.837987487  -65.731307137    24.7441   2   7   0.0636   0.0474   0.1618  -0.0081   0.0336   0.0391   0.10    2.3
2019/11/12 13:32:10.000  -44.837958208  -65.731255911    24.4718   1   7   0.0271   0.0218   0.1576   0.0231  -0.0538  -0.0559  -0.00    6.3
2019/11/12 13:32:10.500  -44.837927802  -65.731197180    24.1821   1   7   0.0255   0.0213   0.1568   0.0222  -0.0532  -0.0549   0.10    7.1
2019/11/12 13:32:11.000  -44.837895830  -65.731139446    24.2364   1   7   0.0242   0.0208   0.1560   0.0213  -0.0526  -0.0541  -0.00   16.2
2019/11/12 13:32:11.500  -44.837861746  -65.731084013    24.5604   1   7   0.0241   0.0208   0.1555   0.0213  -0.0525  -0.0539   0.10   10.4
2019/11/12 13:32:12.000  -44.837825583  -65.731030728    24.8420   1   7   0.0237   0.0206   0.1548   0.0210  -0.0522  -0.0535  -0.00   26.0
2019/11/12 13:32:12.500  -44.837788122  -65.730972434    25.1180   2   7   0.0629   0.0468   0.1677  -0.0121   0.0350   0.0441   0.10    2.7
2019/11/12 13:32:13.000  -44.837747414  -65.730925338    25.2595   2   7   0.0626   0.0468   0.1651  -0.0124   0.0349   0.0426  -0.00    1.4
2019/11/12 13:32:13.500  -44.837705105  -65.730880810    25.4340   2   7   0.0625   0.0468   0.1643  -0.0125   0.0348   0.0421   0.10    1.2
2019/11/12 13:32:14.000  -44.837661245  -65.730839187    25.5476   2   7   0.0625   0.0468   0.1639  -0.0125   0.0348   0.0418  -0.00    1.7
2019/11/12 13:32:14.500  -44.837616025  -65.730800059    25.6767   2   7   0.0627   0.0469   0.1639  -0.0119   0.0343   0.0411   0.10    2.2
2019/11/12 13:32:15.000  -44.837570388  -65.730762301    25.8394   2   7   0.0626   0.0468   0.1638  -0.0121   0.0344   0.0411  -0.00    2.3
2019/11/12 13:32:15.500  -44.837524257  -65.730725217    25.9604   2   7   0.0626   0.0469   0.1638  -0.0119   0.0343   0.0410   0.10    2.1
2019/11/12 13:32:16.000  -44.837478045  -65.730689038    26.0897   2   7   0.0625   0.0468   0.1637  -0.0121   0.0344   0.0410  -0.00    1.8
2019/11/12 13:32:16.500  -44.837431476  -65.730653001    26.1954   2   7   0.0625   0.0468   0.1637  -0.0122   0.0344   0.0410   0.10    1.6
2019/11/12 13:32:17.000  -44.837384227  -65.730617846    26.2638   2   7   0.0625   0.0468   0.1637  -0.0121   0.0344   0.0410  -0.00    1.4
2019/11/12 13:32:17.500  -44.837336810  -65.730583519    26.3962   2   7   0.0626   0.0468   0.1637  -0.0120   0.0344   0.0409   0.10    1.1
2019/11/12 13:32:18.000  -44.837288742  -65.730550028    26.4282   2   7   0.0628   0.0468   0.1638  -0.0117   0.0343   0.0406  -0.00    1.1
2019/11/12 13:32:18.500  -44.837240448  -65.730516514    26.4754   2   7   0.0638   0.0477   0.1645  -0.0051   0.0322   0.0384   0.10    1.4
2019/11/12 13:32:19.000  -44.837190826  -65.730474201    25.9596   1   7   0.0126   0.0085   0.0317   0.0080   0.0091   0.0086  -0.00    3.7
2019/11/12 13:32:19.500  -44.837143099  -65.730440651    26.0680   1   7   0.0106   0.0081   0.0313   0.0068   0.0098   0.0105  -0.10    3.2
2019/11/12 13:32:20.000  -44.837095783  -65.730406363    26.1877   1   7   0.0107   0.0079   0.0314   0.0069   0.0098   0.0103  -0.00    4.6
2019/11/12 13:32:20.500  -44.837048946  -65.730371731    26.2600   1   7   0.0109   0.0080   0.0314   0.0071   0.0096   0.0102  -0.10    3.8
2019/11/12 13:32:21.000  -44.837004069  -65.730345310    26.9117   2   7   0.0625   0.0470   0.1640  -0.0114   0.0341   0.0408  -0.00    1.1
2019/11/12 13:32:21.500  -44.836956264  -65.730300251    26.3859   1   7   0.0117   0.0083   0.0316   0.0075   0.0094   0.0094  -0.10    4.0
2019/11/12 13:32:22.000  -44.836910370  -65.730264049    26.4262   1   7   0.0129   0.0084   0.0319   0.0084   0.0088   0.0081  -0.00    5.5
2019/11/12 13:32:22.500  -44.836865784  -65.730237096    27.0019   2   7   0.0626   0.0470   0.1640  -0.0111   0.0342   0.0409   0.10    1.1
2019/11/12 13:32:23.000  -44.836819308  -65.730201281    26.9741   2   7   0.0624   0.0470   0.1640  -0.0115   0.0343   0.0411  -0.00    1.0
2019/11/12 13:32:23.500  -44.836772479  -65.730166086    27.0263   2   7   0.0624   0.0470   0.1640  -0.0116   0.0344   0.0412   0.10    1.0
2019/11/12 13:32:24.000  -44.836724684  -65.730132147    26.9734   2   7   0.0624   0.0470   0.1640  -0.0116   0.0344   0.0413  -0.00    1.2
2019/11/12 13:32:24.500  -44.836676938  -65.730099282    27.0353   2   7   0.0625   0.0470   0.1640  -0.0112   0.0343   0.0412   0.10    1.2
2019/11/12 13:32:25.000  -44.836628468  -65.730067501    27.0567   2   7   0.0623   0.0469   0.1637  -0.0118   0.0342   0.0411  -0.00    1.3
2019/11/12 13:32:25.500  -44.836579850  -65.730036718    27.1073   2   7   0.0623   0.0470   0.1640  -0.0116   0.0345   0.0414   0.10    1.4
2019/11/12 13:32:26.000  -44.836530674  -65.730007542    27.1693   2   7   0.0623   0.0469   0.1637  -0.0120   0.0342   0.0412  -0.00    1.3
2019/11/12 13:32:26.500  -44.836481179  -65.729979864    27.2945   2   7   0.0624   0.0469   0.1637  -0.0117   0.0340   0.0408   0.10    1.3
2019/11/12 13:32:27.000  -44.836431003  -65.729954564    27.3065   2   7   0.0623   0.0469   0.1635  -0.0120   0.0341   0.0410  -0.00    1.3
2019/11/12 13:32:27.500  -44.836379805  -65.729931056    27.3226   2   7   0.0625   0.0470   0.1641  -0.0112   0.0346   0.0415   0.10    1.1
2019/11/12 13:32:28.000  -44.836327172  -65.729909233    27.3442   2   7   0.0623   0.0469   0.1637  -0.0117   0.0344   0.0414  -0.00    1.2
2019/11/12 13:32:28.500  -44.836274247  -65.729877528    27.0030   1   7   0.0109   0.0080   0.0288   0.0072   0.0057   0.0075  -0.10   12.5
2019/11/12 13:32:29.000  -44.836220256  -65.729858502    27.0588   1   7   0.0100   0.0079   0.0315   0.0067   0.0097   0.0107  -0.00   11.3
2019/11/12 13:32:29.500  -44.836165028  -65.729852573    27.4355   2   7   0.0629   0.0473   0.1643  -0.0093   0.0342   0.0408   0.10    1.0
2019/11/12 13:32:30.000  -44.836109464  -65.729836423    27.5587   2   7   0.0627   0.0471   0.1639  -0.0104   0.0340   0.0407  -0.00    1.0
2019/11/12 13:32:30.500  -44.836053046  -65.729821528    27.6314   2   7   0.0629   0.0473   0.1639  -0.0094   0.0336   0.0404   0.10    1.0
2019/11/12 13:32:31.000  -44.835996132  -65.729808679    27.7205   2   7   0.0626   0.0471   0.1637  -0.0106   0.0339   0.0408  -0.00    1.2
2019/11/12 13:32:31.500  -44.835938609  -65.729798296    27.6746   2   7   0.0628   0.0471   0.1638  -0.0106   0.0338   0.0403   0.10    2.5
2019/11/12 13:32:32.000  -44.835880709  -65.729789970    27.7113   2   7   0.0641   0.0471   0.1639  -0.0093   0.0337   0.0396  -0.00    2.8
2019/11/12 13:32:32.500  -44.835822278  -65.729784306    27.7284   2   7   0.0694   0.0487   0.1661   0.0158   0.0283   0.0290   0.10    1.1
2019/11/12 13:32:33.000  -44.835763675  -65.729780911    27.8787   2   7   0.0675   0.0484   0.1655   0.0127   0.0297   0.0327  -0.00    2.8
2019/11/12 13:32:33.500  -44.835704699  -65.729779361    28.0192   2   7   0.0667   0.0483   0.1653   0.0114   0.0302   0.0340   0.10    1.5
2019/11/12 13:32:34.000  -44.835645510  -65.729779939    28.0538   2   7   0.0656   0.0479   0.1645   0.0069   0.0318   0.0367  -0.00    1.0
2019/11/12 13:32:34.500  -44.835586473  -65.729782962    28.2991   2   7   0.0662   0.0482   0.1651   0.0103   0.0305   0.0349   0.10    1.5
2019/11/12 13:32:35.000  -44.835534299  -65.729776329    29.7303   1   7   0.0218   0.0081   0.0302   0.0110   0.0091   0.0156  -0.00    3.3
2019/11/12 13:32:35.500  -44.835469881  -65.729792406    28.8840   2   7   0.0661   0.0482   0.1651   0.0101   0.0306   0.0351   0.10    1.9
2019/11/12 13:32:36.000  -44.835419589  -65.729787047    30.8997   1   7   0.0150   0.0059   0.0266   0.0045   0.0018  -0.0059  -0.00    4.3
2019/11/12 13:32:36.500  -44.835355300  -65.729805963    29.5617   2   7   0.0668   0.0488   0.1655   0.0131   0.0320   0.0368   0.10    1.3
2019/11/12 13:32:37.000  -44.835299200  -65.729815352    29.8688   2   7   0.0666   0.0486   0.1653   0.0122   0.0314   0.0362  -0.00    1.3
2019/11/12 13:32:37.500  -44.835243633  -65.729825317    30.2255   2   7   0.0656   0.0481   0.1645   0.0083   0.0328   0.0384   0.10    1.4
2019/11/12 13:32:38.000  -44.835188430  -65.729836491    30.4982   2   7   0.0653   0.0480   0.1642   0.0065   0.0332   0.0390  -0.00    1.3
2019/11/12 13:32:38.500  -44.835134434  -65.729848442    30.8021   2   7   0.0729   0.0496   0.1667   0.0210   0.0272   0.0247   0.10    1.1
2019/11/12 13:32:39.000  -44.835086754  -65.729846857    32.7324   1   7   0.0152   0.0059   0.0266   0.0045   0.0018  -0.0060  -0.00    3.1
2019/11/12 13:32:39.500  -44.835030637  -65.729857394    32.0943   1   7   0.0257   0.0121   0.0375   0.0162  -0.0167  -0.0248  -0.10    3.8
2019/11/12 13:32:40.000  -44.834977419  -65.729870240    32.3382   1   7   0.0263   0.0122   0.0378   0.0165  -0.0169  -0.0253  -0.00    3.7
2019/11/12 13:32:40.500  -44.834919649  -65.729899005    31.7377   2   7   0.0721   0.0511   0.1839   0.0236  -0.0155  -0.0208   0.10    1.4
2019/11/12 13:32:41.000  -44.834866548  -65.729913257    31.9696   2   7   0.0712   0.0507   0.1831   0.0221  -0.0121  -0.0173  -0.00    1.3
2019/11/12 13:32:41.500  -44.834814391  -65.729928117    32.1738   2   7   0.0709   0.0506   0.1829   0.0216  -0.0109  -0.0165   0.10    1.2
2019/11/12 13:32:42.000  -44.834762459  -65.729944184    32.3802   2   7   0.0722   0.0512   0.1839   0.0240  -0.0162  -0.0235  -0.00    1.3
2019/11/12 13:32:42.500  -44.834710722  -65.729961429    32.6306   2   7   0.0768   0.0572   0.2420   0.0354  -0.0654  -0.0687   0.10    1.3
2019/11/12 13:32:43.000  -44.834659478  -65.729979815    32.7459   2   7   0.0752   0.0548   0.2189   0.0316  -0.0509  -0.0557  -0.00    1.1
2019/11/12 13:32:43.500  -44.834608274  -65.729999713    32.8007   2   7   0.0747   0.0540   0.2100   0.0301  -0.0446  -0.0502   0.10    1.6
2019/11/12 13:32:44.000  -44.834558151  -65.730021985    33.0692   2   7   0.0744   0.0535   0.2052   0.0293  -0.0409  -0.0471  -0.00    1.5
2019/11/12 13:32:44.500  -44.834508125  -65.730045288    33.3540   2   7   0.0743   0.0533   0.2022   0.0289  -0.0386  -0.0451   0.10    1.2
2019/11/12 13:32:45.000  -44.834458102  -65.730069136    33.4850   2   7   0.0742   0.0531   0.2002   0.0286  -0.0369  -0.0438  -0.00    1.6
2019/11/12 13:32:45.500  -44.834408490  -65.730094742    33.7486   2   7   0.0741   0.0530   0.1987   0.0284  -0.0356  -0.0428   0.10    2.1
2019/11/12 13:32:46.000  -44.834359312  -65.730121513    34.0204   2   7   0.0816   0.0542   0.2032   0.0345  -0.0419  -0.0583  -0.00    1.9
2019/11/12 13:32:46.500  -44.834309937  -65.730149946    34.1289   2   7   0.0817   0.0542   0.2034   0.0346  -0.0420  -0.0586   0.10    1.8
2019/11/12 13:32:47.000  -44.834261012  -65.730180719    34.0911   2   7   0.0978   0.0687   0.3210   0.0594  -0.1107  -0.1319  -0.00    1.5
2019/11/12 13:32:47.500  -44.834206301  -65.730204284    27.7931   2   7   0.1420   0.1162   0.9023   0.1153  -0.3021  -0.3243   0.10    1.0
2019/11/12 13:32:48.000  -44.834171851  -65.730249221    31.9294   2   7   0.3085   0.1778   0.9825   0.2247  -0.3897  -0.4882  -0.00    1.1
2019/11/12 13:32:48.500  -44.834114974  -65.730243954    30.9095   2   7   0.1366   0.1059   0.4207   0.0739  -0.0332   0.0895   0.10    1.1
2019/11/12 13:32:49.000  -44.834068174  -65.730281429    31.3938   2   7   0.1362   0.1056   0.4182   0.0733  -0.0273   0.0920  -0.00    1.0
2019/11/12 13:32:49.500  -44.834022216  -65.730317395    30.2466   1   7   0.0128   0.0059   0.0265   0.0047   0.0017  -0.0035  -0.10    3.3
2019/11/12 13:32:50.000  -44.833976117  -65.730357551    31.1573   2   7   0.1355   0.1050   0.4133   0.0722  -0.0092   0.0965  -0.00    1.0
2019/11/12 13:32:50.500  -44.833935171  -65.730401790    31.3584   1   7   0.0116   0.0059   0.0264   0.0048   0.0017  -0.0016  -0.10    5.5
2019/11/12 13:32:51.000  -44.833891980  -65.730443787    31.5765   1   7   0.0119   0.0059   0.0264   0.0048   0.0017  -0.0022  -0.00    3.6
2019/11/12 13:32:51.500  -44.833846653  -65.730484807    32.0812   2   7   0.1327   0.1029   0.3949   0.0682   0.0492   0.1119   0.10    1.0
2019/11/12 13:32:52.000  -44.833799107  -65.730521639    33.4951   1   7   0.0118   0.0058   0.0264   0.0049   0.0017  -0.0020  -0.00    3.6
2019/11/12 13:32:52.500  -44.833762525  -65.730572072    32.3073   2   7   0.1341   0.1040   0.4030   0.0703   0.0352   0.1046   0.10    1.0
2019/11/12 13:32:53.000  -44.833721458  -65.730616468    32.4538   2   7   0.1329   0.1034   0.3987   0.0688   0.0432   0.1102  -0.00    1.1
2019/11/12 13:32:53.500  -44.833679086  -65.730660747    32.4145   2   7   0.1337   0.1039   0.4019   0.0698   0.0373   0.1066   0.10    1.0
2019/11/12 13:32:54.000  -44.833642790  -65.730707521    31.2021   1   7   0.0349   0.0136   0.0424   0.0204  -0.0200  -0.0329  -0.00   13.7
2019/11/12 13:32:54.500  -44.833597729  -65.730753175    32.5193   2   7   0.1303   0.1021   0.3841   0.0654   0.0602   0.1223   0.10    1.0
2019/11/12 13:32:55.000  -44.833555355  -65.730799809    32.5557   2   7   0.1308   0.1022   0.3834   0.0658   0.0606   0.1221  -0.00    1.0
2019/11/12 13:32:55.500  -44.833513134  -65.730846971    33.1102   1   7   0.0382   0.0139   0.0438   0.0215  -0.0208  -0.0354   0.10    3.2
2019/11/12 13:32:56.000  -44.833472257  -65.730897312    33.0962   1   7   0.0352   0.0137   0.0427   0.0206  -0.0203  -0.0333  -0.00    7.4
2019/11/12 13:32:56.500  -44.833430993  -65.730944000    32.4253   2   7   0.1306   0.1023   0.3830   0.0659   0.0602   0.1220   0.10    1.1
2019/11/12 13:32:57.000  -44.833388145  -65.730993183    32.4113   2   7   0.1306   0.1023   0.3830   0.0659   0.0601   0.1220  -0.00    1.1
2019/11/12 13:32:57.500  -44.833347455  -65.731043503    32.4610   1   7   0.0332   0.0135   0.0420   0.0200  -0.0198  -0.0319   0.10    3.0
2019/11/12 13:32:58.000  -44.833296909  -65.731090683    33.8677   1   7   0.0354   0.0137   0.0428   0.0207  -0.0203  -0.0334  -0.00    5.9
2019/11/12 13:32:58.500  -44.833258749  -65.731142354    32.5536   2   7   0.1307   0.1025   0.3829   0.0660   0.0595   0.1221   0.10    1.1
2019/11/12 13:32:59.000  -44.833216043  -65.731193931    32.5034   1   7   0.0377   0.0137   0.0434   0.0212  -0.0205  -0.0349  -0.00   12.0
2019/11/12 13:32:59.500  -44.833170514  -65.731242861    32.5625   1   7   0.0349   0.0136   0.0424   0.0204  -0.0200  -0.0329   0.10    3.4
2019/11/12 13:33:00.000  -44.833120720  -65.731288944    32.4591   2   7   0.1310   0.1027   0.3842   0.0663   0.0581   0.1213  -0.00    2.6
2019/11/12 13:33:00.500  -44.833053890  -65.731326531    38.5162   1   7   0.0153   0.0059   0.0266   0.0045   0.0020  -0.0059  -0.10    4.0
2019/11/12 13:33:01.000  -44.833024873  -65.731383740    32.7393   2   7   0.1345   0.1057   0.3931   0.0718   0.0320   0.1117  -0.00    1.2
2019/11/12 13:33:01.500  -44.832976872  -65.731431913    32.8524   2   7   0.1343   0.1057   0.3930   0.0718   0.0317   0.1114   0.10    1.1
2019/11/12 13:33:02.000  -44.832919188  -65.731477076    35.3926   2   7   0.4083   0.1232   1.1053   0.1716   0.2570   0.6408  -0.00    1.0
2019/11/12 13:33:02.500  -44.832871369  -65.731523366    34.5372   2   7   0.4083   0.1232   1.1054   0.1717   0.2570   0.6408   0.10    1.0
2019/11/12 13:33:03.000  -44.832844690  -65.731575944    27.7538   2   7   0.4986   0.1393   1.3434   0.2143   0.3012   0.7875  -0.00    1.2
2019/11/12 13:33:03.500  -44.832772420  -65.731615211    33.8892   2   7   0.1632   0.1141   0.4651   0.0913  -0.0988   0.1624   0.10    1.1
2019/11/12 13:33:04.000  -44.832720474  -65.731659928    33.7691   2   7   0.1632   0.1141   0.4648   0.0912  -0.0987   0.1625  -0.00    1.0
2019/11/12 13:33:04.500  -44.832669896  -65.731704340    33.7254   2   7   0.1633   0.1141   0.4648   0.0912  -0.0986   0.1627   0.10    1.2
2019/11/12 13:33:05.000  -44.832622312  -65.731749500    36.5795   1   7   0.0224   0.0091   0.0324   0.0121   0.0114   0.0179  -0.00    4.9
2019/11/12 13:33:05.500  -44.832562478  -65.731789040    34.1877   2   7   0.1632   0.1140   0.4644   0.0912  -0.0984   0.1624   0.10    1.1
2019/11/12 13:33:06.000  -44.832523239  -65.731840154    38.2710   2   7   0.1638   0.1204   0.7973   0.0986  -0.2301  -0.2109  -0.00    1.7
2019/11/12 13:33:06.500  -44.832470268  -65.731881864    37.8568   2   7   0.1638   0.1204   0.7972   0.0986  -0.2300  -0.2108   0.10    1.4
2019/11/12 13:33:07.000  -44.832421042  -65.731926425    40.3816   2   7   0.1639   0.1203   0.7973   0.0986  -0.2299  -0.2106  -0.00    1.9
2019/11/12 13:33:07.500  -44.832367349  -65.731966122    38.3967   2   7   0.1627   0.1203   0.7976   0.0983  -0.2301  -0.2116   0.10    1.8
2019/11/12 13:33:08.000  -44.832315051  -65.732006370    37.6454   2   7   0.1480   0.1063   0.6374   0.0759  -0.1607  -0.1031  -0.00    4.1
2019/11/12 13:33:08.500  -44.832262438  -65.732047478    37.7852   2   7   0.1476   0.1059   0.6332   0.0752  -0.1584  -0.0992   0.10   26.6
2019/11/12 13:33:09.000  -44.832209294  -65.732087612    37.2046   2   7   0.1473   0.1056   0.6303   0.0747  -0.1567  -0.0961  -0.00    2.9
2019/11/12 13:33:09.500  -44.832159380  -65.732128827    38.0555   2   7   0.1470   0.1053   0.6284   0.0743  -0.1556  -0.0938   0.10  999.9
2019/11/12 13:33:10.000  -44.832106144  -65.732167245    38.4453   2   7   0.1468   0.1052   0.6276   0.0740  -0.1549  -0.0924  -0.00  999.9
2019/11/12 13:33:10.500  -44.832054674  -65.732206352    38.0616   2   7   0.1467   0.1051   0.6278   0.0739  -0.1548  -0.0918   0.10    2.1
2019/11/12 13:33:11.000  -44.832003383  -65.732244849    38.4371   2   7   0.1467   0.1051   0.6290   0.0739  -0.1552  -0.0920  -0.00    2.1
2019/11/12 13:33:11.500  -44.831952574  -65.732283291    38.0453   2   7   0.1465   0.1051   0.6311   0.0736  -0.1557  -0.0923   0.10  128.3
2019/11/12 13:33:12.000  -44.831902280  -65.732321917    38.9468   2   7   0.1460   0.1044   0.6259   0.0727  -0.1523  -0.0858  -0.00    1.1
2019/11/12 13:33:12.500  -44.831847210  -65.732353684    34.5019   2   7   0.1625   0.1677   1.1551   0.1302  -0.3957  -0.2857   0.10    1.9
2019/11/12 13:33:13.000  -44.831799765  -65.732395955    37.4753   2   7   0.1469   0.1072   0.5584   0.0817  -0.1507  -0.0898  -0.00    1.2
2019/11/12 13:33:13.500  -44.831749875  -65.732432721    36.9803   2   7   0.1467   0.1067   0.5546   0.0813  -0.1486  -0.0871   0.10    1.7
2019/11/12 13:33:14.000  -44.831701200  -65.732473367    39.9506   1   7   0.0176   0.0065   0.0571  -0.0019  -0.0116   0.0205  -0.00    6.8
2019/11/12 13:33:14.500  -44.831652436  -65.732514707    41.8117   1   7   0.0151   0.0065   0.0567   0.0016  -0.0113   0.0189   0.10    3.5
2019/11/12 13:33:15.000  -44.831602551  -65.732541360    37.5979   2   7   0.0124   0.0046   0.0404  -0.0013  -0.0082   0.0145  -0.00   91.3
2019/11/12 13:33:15.500  -44.831555157  -65.732573241    36.3210   1   7   0.0176   0.0065   0.0571  -0.0019  -0.0116   0.0205  -0.10   14.6
2019/11/12 13:33:16.000  -44.831505571  -65.732614184    39.7773   1   7   0.0174   0.0065   0.0570  -0.0017  -0.0115   0.0204  -0.00   44.9
2019/11/12 13:33:16.500  -44.831459214  -65.732645804    38.0113   2   7   0.1473   0.1060   0.5475   0.0814  -0.1447  -0.0858   0.10    1.8
2019/11/12 13:33:17.000  -44.831414321  -65.732681605    38.5719   2   7   0.0136   0.0057   0.0445   0.0042  -0.0114   0.0102  -0.00    5.0
2019/11/12 13:33:17.500  -44.831369614  -65.732712757    36.4352   1   7   0.4102   0.2377   1.3120   0.3120  -0.5581  -0.7326  -0.10    4.4
2019/11/12 13:33:18.000  -44.831309520  -65.732739870    34.9995   2   7   0.3140   0.1855   0.9807   0.2211  -0.3806  -0.4831  -0.00    1.0
2019/11/12 13:33:18.500  -44.831257412  -65.732769077    33.3771   2   7   0.2464   0.1684   0.7564   0.1815  -0.3060  -0.3344   0.10    2.0
2019/11/12 13:33:19.000  -44.831220370  -65.732803824    31.0589   1   7   0.0334   0.0276   0.1624   0.0291  -0.0649  -0.0668  -0.00    6.0
2019/11/12 13:33:19.500  -44.831178313  -65.732847650    36.8660   2   7   0.1903   0.1618   0.6762   0.1452  -0.2690  -0.2385   0.10    1.9
2019/11/12 13:33:20.000  -44.831136889  -65.732885910    38.6607   2   7   0.1895   0.1615   0.6759   0.1445  -0.2684  -0.2371  -0.00    1.2
2019/11/12 13:33:20.500  -44.831089563  -65.732913558    38.0935   2   7   0.1892   0.1616   0.6778   0.1444  -0.2692  -0.2372   0.10    2.0
2019/11/12 13:33:21.000  -44.831050215  -65.732958306    44.9408   1   7   0.0729   0.1903   1.2390   0.1161  -0.4854  -0.2955  -0.00    5.2
2019/11/12 13:33:21.500  -44.831006887  -65.732970419    37.9141   1   7   0.0604   0.1417   0.9205   0.0886  -0.3607  -0.2239  -0.10    3.0
2019/11/12 13:33:22.000  -44.830969577  -65.733001217    36.4787   1   7   0.0674   0.1647   1.0712   0.1019  -0.4197  -0.2581  -0.00    5.2
2019/11/12 13:33:22.500  -44.830912742  -65.733027895    37.9479   2   7   0.1783   0.1388   0.9114   0.1113  -0.2781  -0.1156   0.10    1.4
2019/11/12 13:33:23.000  -44.830888514  -65.733058484    34.8258   1   7   0.0626   0.1504   0.9782   0.0932  -0.3831  -0.2358  -0.00   10.1
2019/11/12 13:33:23.500  -44.830847905  -65.733087695    36.8621   1   7   0.0715   0.1792   1.1673   0.1098  -0.4571  -0.2787  -0.10    4.0
2019/11/12 13:33:24.000  -44.830802825  -65.733111624    34.3469   1   7   0.0560   0.1298   0.8438   0.0810  -0.3305  -0.2045  -0.00    5.6
2019/11/12 13:33:24.500  -44.830744892  -65.733137150    37.5444   2   7   0.2485   0.1353   0.7617   0.1486  -0.2078  -0.1699   0.10    1.1
2019/11/12 13:33:25.000  -44.830706068  -65.733167077    38.4467   1   7   0.0415   0.0989   0.6439   0.0612  -0.2521  -0.1547  -0.00   28.7
2019/11/12 13:33:25.500  -44.830664445  -65.733196822    38.3239   1   7   0.0502   0.1111   0.7221   0.0701  -0.2827  -0.1763   0.10  168.7
2019/11/12 13:33:26.000  -44.830615325  -65.733210273    33.8436   2   7   0.2496   0.1635   1.3395   0.1614  -0.3817  -0.2893  -0.00    6.9
2019/11/12 13:33:26.500  -44.830583252  -65.733242888    35.5552   2   7   0.4078   0.1922   1.2051   0.2478  -0.3301  -0.2248   0.10    3.6
2019/11/12 13:33:27.000  -44.830550689  -65.733274998    38.4714   2   7   0.3720   0.1666   1.0829   0.2131  -0.2414   0.1935  -0.00  126.3
2019/11/12 13:33:27.500  -44.830507349  -65.733299035    36.9070   2   7   0.3720   0.1667   1.0817   0.2131  -0.2412   0.1942   0.10    1.0
2019/11/12 13:33:28.000  -44.830457192  -65.733320143    37.4061   2   7   0.3721   0.1666   1.0823   0.2131  -0.2412   0.1933  -0.00  999.9
2019/11/12 13:33:28.500  -44.830416631  -65.733345508    37.1990   2   7   0.3719   0.1666   1.0820   0.2130  -0.2411   0.1947   0.10    5.6
2019/11/12 13:33:29.000  -44.830368816  -65.733366419    35.5614   2   7   0.3187   0.1528   1.1789   0.1765  -0.2628   0.2232  -0.00  999.9
2019/11/12 13:33:29.500  -44.830325421  -65.733390817    36.9322   2   7   0.3187   0.1529   1.1788   0.1766  -0.2628   0.2234   0.10  999.9
2019/11/12 13:33:30.000  -44.830274404  -65.733408542    33.7344   2   7   0.3178   0.1688   1.3798   0.1829  -0.3469   0.1613  -0.00    7.0
2019/11/12 13:33:30.500  -44.830228072  -65.733431274    33.6964   2   7   0.3107   0.1847   1.0193   0.1605  -0.2464   0.3062   0.10    1.4
2019/11/12 13:33:31.000  -44.830189599  -65.733460463    34.1643   2   7   0.3106   0.1847   1.0191   0.1606  -0.2464   0.3063  -0.00    1.7
2019/11/12 13:33:31.500  -44.830141974  -65.733480468    34.3128   1   7   0.0119   0.0082   0.0318   0.0076   0.0102   0.0106   0.10    4.0
2019/11/12 13:33:32.000  -44.830079508  -65.733505708    30.1448   2   7   0.2116   0.0873   0.6056   0.1074  -0.0517   0.2316  -0.00    1.1
2019/11/12 13:33:32.500  -44.830029298  -65.733525649    29.7462   2   7   0.2118   0.0877   0.6077   0.1070  -0.0553   0.2327   0.10    1.3
2019/11/12 13:33:33.000  -44.829982928  -65.733545769    29.6673   2   7   0.2110   0.0867   0.6017   0.1081  -0.0442   0.2293  -0.00    1.9
2019/11/12 13:33:33.500  -44.829935624  -65.733566871    29.5877   2   7   0.2110   0.0867   0.6014   0.1082  -0.0439   0.2292   0.10    1.1
2019/11/12 13:33:34.000  -44.829887997  -65.733586330    29.9724   2   7   0.2111   0.0867   0.6012   0.1081  -0.0437   0.2292  -0.00    2.0
2019/11/12 13:33:34.500  -44.829839482  -65.733604748    29.5823   2   7   0.2111   0.0867   0.6011   0.1082  -0.0433   0.2292   0.10    1.4
2019/11/12 13:33:35.000  -44.829793561  -65.733624364    29.9081   2   7   0.2110   0.0867   0.6007   0.1084  -0.0426   0.2289  -0.00    1.5
2019/11/12 13:33:35.500  -44.829746337  -65.733637789    31.1146   1   7   0.0181   0.0079   0.0301   0.0093   0.0088   0.0128   0.10    4.9
2019/11/12 13:33:36.000  -44.829687161  -65.733653866    28.0725   1   7   0.0351   0.0126   0.0514  -0.0182   0.0222  -0.0377  -0.00    3.5
2019/11/12 13:33:36.500  -44.829639879  -65.733670466    31.9940   1   7   0.0363   0.0129   0.0526  -0.0188   0.0229  -0.0390   0.10    4.5
2019/11/12 13:33:37.000  -44.829591972  -65.733687605    30.7510   1   7   0.0269   0.0101   0.0418  -0.0130   0.0164  -0.0277  -0.00    4.9
2019/11/12 13:33:37.500  -44.829541689  -65.733700559    30.8004   1   7   0.0228   0.0089   0.0374  -0.0102   0.0135  -0.0226   0.10    3.4
2019/11/12 13:33:38.000  -44.829493117  -65.733719784    29.0108   2   7   0.2129   0.0886   0.6165   0.1108  -0.0666   0.2222  -0.00    1.1
2019/11/12 13:33:38.500  -44.829442485  -65.733734293    28.8847   2   7   0.2122   0.0879   0.6111   0.1099  -0.0584   0.2254   0.10    1.3
2019/11/12 13:33:39.000  -44.829370543  -65.733736981    30.0738   2   7   0.0251   0.0089   0.0365  -0.0130   0.0158  -0.0269  -0.00    3.2
2019/11/12 13:33:39.500  -44.829341340  -65.733760603    26.9522   2   7   0.2988   0.1371   1.1660   0.1707  -0.2774   0.1796   0.10    1.1
2019/11/12 13:33:40.000  -44.829289952  -65.733771993    24.7453   2   7   0.2988   0.1373   1.1664   0.1708  -0.2779   0.1788  -0.00    1.6
2019/11/12 13:33:40.500  -44.829243547  -65.733788772    25.2070   2   7   0.2987   0.1370   1.1660   0.1706  -0.2772   0.1796   0.10    2.3
2019/11/12 13:33:41.000  -44.829205759  -65.733818813    36.3888   2   7   0.2947   0.1267   1.0434   0.1630  -0.2228   0.2402  -0.00    1.3
2019/11/12 13:33:41.500  -44.829154079  -65.733831972    36.9683   2   7   0.2948   0.1264   1.0408   0.1629  -0.2211   0.2413   0.10    1.5
2019/11/12 13:33:42.000  -44.829098420  -65.733840420    34.0008   2   7   0.2950   0.1264   1.0415   0.1631  -0.2213   0.2405  -0.00    1.4
2019/11/12 13:33:42.500  -44.829036756  -65.733842155    31.9577   1   7   0.0120   0.0103   0.0374   0.0082   0.0151   0.0122   0.10    6.6
2019/11/12 13:33:43.000  -44.829016491  -65.733871170    26.5712   2   7   0.1444   0.1398   1.2997   0.1247  -0.4054  -0.3818  -0.00    2.4
2019/11/12 13:33:43.500  -44.828971255  -65.733891878    31.9694   2   7   0.0905   0.0659   0.4156   0.0409  -0.1130  -0.0873   0.10    1.6
2019/11/12 13:33:44.000  -44.828922721  -65.733908993    32.7150   1   7   0.0109   0.0071   0.0294   0.0062   0.0077   0.0072  -0.00    5.1
2019/11/12 13:33:44.500  -44.828871726  -65.733919769    32.0129   2   7   0.0889   0.0654   0.4150   0.0392  -0.1120  -0.0846   0.10    1.3
2019/11/12 13:33:45.000  -44.828822792  -65.733933473    32.3269   2   7   0.0890   0.0654   0.4151   0.0394  -0.1117  -0.0842  -0.00    1.2
2019/11/12 13:33:45.500  -44.828743631  -65.733925275    32.8739   1   7   0.0119   0.0088   0.0334   0.0077   0.0117   0.0112   0.10   55.6
2019/11/12 13:33:46.000  -44.828723147  -65.733959637    32.5177   2   7   0.0893   0.0655   0.4150   0.0397  -0.1116  -0.0841  -0.00    1.3
2019/11/12 13:33:46.500  -44.828673323  -65.733972170    32.5676   2   7   0.0900   0.0657   0.4150   0.0404  -0.1116  -0.0842   0.10    1.2
2019/11/12 13:33:47.000  -44.828620028  -65.733985497    34.4329   2   7   0.0574   0.0452   0.0267   0.0507  -0.0086  -0.0128  -0.00    7.5
2019/11/12 13:33:47.500  -44.828554161  -65.733980226    35.7648   1   7   0.1579   0.1237   0.0399   0.1396  -0.0382  -0.0448   0.10    4.5
2019/11/12 13:33:48.000  -44.828524785  -65.734009869    32.8606   2   7   0.0781   0.0637   0.4131   0.0308  -0.1139  -0.0925  -0.00   15.6
2019/11/12 13:33:48.500  -44.828475939  -65.734022101    32.9353   2   7   0.0778   0.0635   0.4108   0.0303  -0.1143  -0.0948   0.10    2.2
2019/11/12 13:33:49.000  -44.828409058  -65.734017632    37.2548   1   7   0.0510   0.0541   0.5378   0.0518  -0.1691  -0.1608  -0.00   15.5
2019/11/12 13:33:49.500  -44.828357149  -65.734028561    37.7586   1   7   0.0515   0.0527   0.5177   0.0512  -0.1634  -0.1565   0.10    3.2
2019/11/12 13:33:50.000  -44.828308865  -65.734040389    37.4948   1   7   0.0481   0.0503   0.4985   0.0484  -0.1571  -0.1500  -0.00    8.9
2019/11/12 13:33:50.500  -44.828261391  -65.734052960    37.6402   1   7   0.0459   0.0484   0.4815   0.0464  -0.1515  -0.1446   0.10   12.6
2019/11/12 13:33:51.000  -44.828214203  -65.734065337    37.6618   1   7   0.0470   0.0475   0.4663   0.0462  -0.1470  -0.1408  -0.00   15.2
2019/11/12 13:33:51.500  -44.828171508  -65.734079383    37.5255   1   7   0.0439   0.0461   0.4571   0.0440  -0.1438  -0.1361   0.10    7.4
2019/11/12 13:33:52.000  -44.828125190  -65.734091461    37.6538   1   7   0.0493   0.0497   0.4610   0.0485  -0.1489  -0.1432  -0.00   30.2
2019/11/12 13:33:52.500  -44.828079402  -65.734104383    37.5999   1   7   0.0440   0.0455   0.4377   0.0439  -0.1393  -0.1333   0.10   12.1
2019/11/12 13:33:53.000  -44.828051897  -65.734134664    32.8823   2   7   0.0746   0.0638   0.4216   0.0285  -0.1185  -0.1010  -0.00    2.1
2019/11/12 13:33:53.500  -44.828007468  -65.734148981    32.8632   2   7   0.0753   0.0639   0.4217   0.0292  -0.1180  -0.0998   0.10    2.0
2019/11/12 13:33:54.000  -44.827953364  -65.734156069    31.1264   2   7   0.0306   0.0314   0.3096   0.0303  -0.0967  -0.0920  -0.00   29.9
2019/11/12 13:33:54.500  -44.827900741  -65.734160223    35.7791   1   7   0.1170   0.1287   1.3083   0.1224  -0.4095  -0.3889   0.10    5.6
2019/11/12 13:33:55.000  -44.827855226  -65.734172383    33.9290   1   7   0.0969   0.1055   1.0701   0.1006  -0.3348  -0.3180  -0.00    6.9
2019/11/12 13:33:55.500  -44.827829926  -65.734204723    30.5422   2   7   0.0698   0.0573   0.3232   0.0092  -0.0811  -0.0577   0.10    2.4
2019/11/12 13:33:56.000  -44.827784664  -65.734228113    29.9284   1   7   0.0308   0.0325   0.3281   0.0307  -0.1017  -0.0959  -0.00    7.2
2019/11/12 13:33:56.500  -44.827734875  -65.734232228    32.9983   2   7   0.0281   0.0301   0.3050   0.0285  -0.0948  -0.0895   0.10    4.0
2019/11/12 13:33:57.000  -44.827689820  -65.734244363    33.4914   2   7   0.0280   0.0300   0.3050   0.0285  -0.0948  -0.0894  -0.00    6.6
2019/11/12 13:33:57.500  -44.827635973  -65.734243426    34.1866   1   7   0.0590   0.0645   0.6578   0.0612  -0.2052  -0.1943   0.10    8.1
2019/11/12 13:33:58.000  -44.827593212  -65.734257921    34.8045   1   7   0.0557   0.0608   0.6204   0.0577  -0.1935  -0.1832  -0.00   13.8
2019/11/12 13:33:58.500  -44.827567175  -65.734288324    30.8349   2   7   0.0699   0.0574   0.3218   0.0102  -0.0801  -0.0572   0.10    2.1
2019/11/12 13:33:59.000  -44.827523671  -65.734301590    30.8554   2   7   0.0698   0.0573   0.3224   0.0097  -0.0801  -0.0567  -0.00    1.8
2019/11/12 13:33:59.500  -44.827479753  -65.734314311    31.0428   2   7   0.0703   0.0574   0.3246   0.0106  -0.0797  -0.0540   0.10    1.1
2019/11/12 13:34:00.000  -44.827435953  -65.734327397    31.0537   2   7   0.0708   0.0576   0.3140   0.0131  -0.0789  -0.0583  -0.00    1.9
2019/11/12 13:34:00.500  -44.827392780  -65.734341039    31.1608   2   7   0.0696   0.0570   0.3147   0.0080  -0.0780  -0.0552   0.10    1.4
2019/11/12 13:34:01.000  -44.827350205  -65.734353795    30.9676   2   7   0.0695   0.0571   0.3138   0.0084  -0.0783  -0.0563  -0.00    2.1
2019/11/12 13:34:01.500  -44.827309068  -65.734366065    31.1729   2   7   0.0696   0.0571   0.3136   0.0090  -0.0782  -0.0564   0.10    1.1
2019/11/12 13:34:02.000  -44.827269117  -65.734377727    31.2213   2   7   0.0699   0.0572   0.3137   0.0099  -0.0783  -0.0566  -0.00    1.1
2019/11/12 13:34:02.500  -44.827230339  -65.734388868    31.2683   2   7   0.0705   0.0574   0.3138   0.0121  -0.0785  -0.0571   0.10    1.3
2019/11/12 13:34:03.000  -44.827192659  -65.734400197    31.2844   2   7   0.0699   0.0573   0.3147   0.0104  -0.0789  -0.0578  -0.00    1.2
2019/11/12 13:34:03.500  -44.827155018  -65.734410623    31.3155   2   7   0.0701   0.0575   0.3153   0.0116  -0.0793  -0.0584   0.10    1.5
2019/11/12 13:34:04.000  -44.827117790  -65.734420415    31.0736   2   7   0.0712   0.0581   0.3176   0.0153  -0.0810  -0.0611  -0.00    2.2
2019/11/12 13:34:04.500  -44.827082464  -65.734431941    32.0565   2   7   0.0694   0.0575   0.3177   0.0092  -0.0799  -0.0563   0.10    1.0
2019/11/12 13:34:05.000  -44.827046959  -65.734441630    31.7883   2   7   0.0693   0.0571   0.3136   0.0071  -0.0774  -0.0533  -0.00    2.7
2019/11/12 13:34:05.500  -44.827012606  -65.734451298    31.8261   2   7   0.0694   0.0570   0.3126   0.0070  -0.0763  -0.0512   0.10    1.8
2019/11/12 13:34:06.000  -44.826979322  -65.734461766    31.7431   2   7   0.0697   0.0569   0.3141   0.0074  -0.0754  -0.0493  -0.00    1.1
2019/11/12 13:34:06.500  -44.826947691  -65.734471148    31.8042   2   7   0.0705   0.0574   0.3090   0.0120  -0.0764  -0.0547   0.10    1.6
